{
  	"locations" : [

 	 	{"title": "Victoria Peak","location": {"lat": 22.2744586,"lng": 114.1463806}},
		{"title": "Golden Bauhinia Square","location": {"lat": 22.2828592,"lng":114.1727599}},
		{"title": "Happy Valley Racecourse","location": {"lat": 22.2736529,"lng":114.1789663}},
		{"title": "Nan Lian Garden","location": {"lat": 22.3391533,"lng":114.2031693}},
		{"title": "Dragon's Back","location": {"lat": 22.2368118,"lng":114.2418383}},
		{"title": "Hong Kong Disneyland Resort","location": {"lat": 22.3169947,"lng":114.0352293}},
		{"title": "Ocean Park","location":{"lat":22.2464896,"lng":114.1749692}},
		{"title": "Tian Tan Buddha","location":{"lat":22.2538977,"lng":113.904246}},
		{"title": "Mai Po Nature Reserve","location":{"lat":22.4948503,"lng":114.02821119}},
		{"title": "Temple Street Night Market","location":{"lat":22.3066221,"lng":114.168869}}
     ]
}